{"resultsFound":100,"resultsStart":0,"resultsShown":10,"delivery":11777,"dineOut":8627,"nightlife":622,"chillout":0,"takeaway":14298,"all":16507,"results":[{"result":{"id":"18337894","name":"Prankster","address":"Site 8-10, Sector 29, Gurgaon","locality":"Sector 29","phone":"011 33107913","city":"Gurgaon","cuisines":"Modern Indian, North Indian","distance_actual":0,"distance_friendly":"about 0 meters","rating_aggregate":4.9,"votes":1329,"rating_color":"3F7E00","rating_text":"Excellent","user_review_count":1141,"rating_editor_overall":0,"cost_for_two":1500,"has_discount":0,"has_citibank_discount":0,"has_emirates_discount":0,"latitude":28.4694036,"longitude":77.0631922,"has_menu":1,"has_bar":1,"is_pure_veg":0,"accepts_credit_card":1,"has_dine_in":1,"has_delivery":0,"has_coordinates":1,"image_470_310":"","image_310_310":"","image_310_150":"","image_150_150":""}},{"result":{"id":"18233593","name":"Farzi Cafe","address":"38\/39, Level 1, Block E , Inner Circle, Connaught Place, New Delhi","locality":"Connaught Place","phone":"+91 9599889700, 011 43551028, 011 43551029","city":"New Delhi","cuisines":"Modern Indian","distance_actual":0,"distance_friendly":"about 0 meters","rating_aggregate":4.4,"votes":1827,"rating_color":"5BA829","rating_text":"Very Good","user_review_count":1394,"rating_editor_overall":0,"cost_for_two":2200,"has_discount":0,"has_citibank_discount":0,"has_emirates_discount":0,"latitude":28.6325443379,"longitude":77.2212162986,"has_menu":1,"has_bar":1,"is_pure_veg":0,"accepts_credit_card":1,"has_dine_in":1,"has_delivery":0,"has_coordinates":1,"image_470_310":"","image_310_310":"","image_310_150":"","image_150_150":""}},{"result":{"id":"308322","name":"Hauz Khas Social","address":"9-A & 12, Hauz Khas Village, New Delhi","locality":"Hauz Khas Village","phone":"011 33105944","city":"New Delhi","cuisines":"Continental, American, Asian, North Indian","distance_actual":0,"distance_friendly":"about 0 meters","rating_aggregate":4.3,"votes":7732,"rating_color":"5BA829","rating_text":"Very Good","user_review_count":4175,"rating_editor_overall":0,"cost_for_two":1600,"has_discount":0,"has_citibank_discount":0,"has_emirates_discount":0,"latitude":28.5545073,"longitude":77.1940306,"has_menu":1,"has_bar":1,"is_pure_veg":0,"accepts_credit_card":1,"has_dine_in":1,"has_delivery":0,"has_coordinates":1,"image_470_310":"","image_310_310":"","image_310_150":"","image_150_150":""}},{"result":{"id":"18157413","name":"Molecule Air Bar","address":"4th Floor, SCO 53, Main Market, Sector 29, Gurgaon","locality":"Sector 29","phone":"011 33105241","city":"Gurgaon","cuisines":"Continental, North Indian","distance_actual":0,"distance_friendly":"about 0 meters","rating_aggregate":4.2,"votes":1646,"rating_color":"5BA829","rating_text":"Very Good","user_review_count":1210,"rating_editor_overall":0,"cost_for_two":1300,"has_discount":0,"has_citibank_discount":0,"has_emirates_discount":0,"latitude":28.4676992188,"longitude":77.0642839372,"has_menu":1,"has_bar":1,"is_pure_veg":0,"accepts_credit_card":1,"has_dine_in":1,"has_delivery":0,"has_coordinates":1,"image_470_310":"","image_310_310":"","image_310_150":"","image_150_150":""}},{"result":{"id":"304299","name":"The Flying Saucer Cafe","address":"Ground Floor, Epicuria Food Mall, Nehru Place Metro Station, Nehru Place, New Delhi","locality":"Nehru Place","phone":"011 33106257","city":"New Delhi","cuisines":"Italian, Mediterranean, Continental, North Indian","distance_actual":0,"distance_friendly":"about 0 meters","rating_aggregate":4.3,"votes":3349,"rating_color":"5BA829","rating_text":"Very Good","user_review_count":1963,"rating_editor_overall":0,"cost_for_two":1500,"has_discount":0,"has_citibank_discount":0,"has_emirates_discount":0,"latitude":28.5514922,"longitude":77.2522795,"has_menu":1,"has_bar":1,"is_pure_veg":0,"accepts_credit_card":1,"has_dine_in":1,"has_delivery":0,"has_coordinates":1,"image_470_310":"","image_310_310":"","image_310_150":"","image_150_150":""}},{"result":{"id":"18238278","name":"Tamasha","address":"28, Kasturba Gandhi Marg, Connaught Place, New Delhi","locality":"Connaught Place","phone":"011 33106409","city":"New Delhi","cuisines":"Finger Food, Continental","distance_actual":0,"distance_friendly":"about 0 meters","rating_aggregate":3.9,"votes":1625,"rating_color":"9ACD32","rating_text":"Good","user_review_count":1269,"rating_editor_overall":0,"cost_for_two":1400,"has_discount":0,"has_citibank_discount":0,"has_emirates_discount":0,"latitude":28.629628,"longitude":77.221666,"has_menu":1,"has_bar":1,"is_pure_veg":0,"accepts_credit_card":1,"has_dine_in":1,"has_delivery":0,"has_coordinates":1,"image_470_310":"","image_310_310":"","image_310_150":"","image_150_150":""}},{"result":{"id":"18357911","name":"Tourist Janpath","address":"1, Scindia House, Janpath Road, Connaught Place, New Delhi","locality":"Connaught Place","phone":"011 30806531","city":"New Delhi","cuisines":"North Indian, American, Chinese","distance_actual":0,"distance_friendly":"about 0 meters","rating_aggregate":4.4,"votes":415,"rating_color":"5BA829","rating_text":"Very Good","user_review_count":372,"rating_editor_overall":0,"cost_for_two":2000,"has_discount":0,"has_citibank_discount":0,"has_emirates_discount":0,"latitude":28.62386,"longitude":77.2173,"has_menu":1,"has_bar":1,"is_pure_veg":0,"accepts_credit_card":1,"has_dine_in":1,"has_delivery":0,"has_coordinates":1,"image_470_310":"","image_310_310":"","image_310_150":"","image_150_150":""}},{"result":{"id":"18157384","name":"Jungle Jamboree","address":"P-17\/90, Outer Circle, Connaught Place, New Delhi","locality":"Connaught Place","phone":"011 33107560","city":"New Delhi","cuisines":"North Indian, Continental, Chinese, Italian, Thai, Mughlai","distance_actual":0,"distance_friendly":"about 0 meters","rating_aggregate":3.8,"votes":1077,"rating_color":"9ACD32","rating_text":"Good","user_review_count":899,"rating_editor_overall":0,"cost_for_two":1200,"has_discount":0,"has_citibank_discount":0,"has_emirates_discount":0,"latitude":28.6322382909,"longitude":77.2165422142,"has_menu":1,"has_bar":1,"is_pure_veg":0,"accepts_credit_card":1,"has_dine_in":1,"has_delivery":0,"has_coordinates":1,"image_470_310":"","image_310_310":"","image_310_150":"","image_150_150":""}},{"result":{"id":"311057","name":"My Bar Headquarters","address":"N-49, 2nd Floor, Connaught Place, New Delhi","locality":"Connaught Place","phone":"011 33106535","city":"New Delhi","cuisines":"North Indian, Mughlai, Chinese","distance_actual":0,"distance_friendly":"about 0 meters","rating_aggregate":3.6,"votes":2882,"rating_color":"9ACD32","rating_text":"Good","user_review_count":1793,"rating_editor_overall":0,"cost_for_two":1000,"has_discount":0,"has_citibank_discount":0,"has_emirates_discount":0,"latitude":28.630402873,"longitude":77.2198782116,"has_menu":1,"has_bar":1,"is_pure_veg":0,"accepts_credit_card":1,"has_dine_in":1,"has_delivery":0,"has_coordinates":1,"image_470_310":"","image_310_310":"","image_310_150":"","image_150_150":""}},{"result":{"id":"18273624","name":"Cafeteria & Co.","address":"G 14, Hudson Lane, Vijay Nagar, New Delhi","locality":"Vijay Nagar","phone":"Not available for this place","city":"New Delhi","cuisines":"Continental, Mexican","distance_actual":0,"distance_friendly":"about 0 meters","rating_aggregate":4.4,"votes":995,"rating_color":"5BA829","rating_text":"Very Good","user_review_count":787,"rating_editor_overall":0,"cost_for_two":800,"has_discount":0,"has_citibank_discount":0,"has_emirates_discount":0,"latitude":28.6944707,"longitude":77.2043384,"has_menu":1,"has_bar":0,"is_pure_veg":0,"accepts_credit_card":1,"has_dine_in":1,"has_delivery":0,"has_coordinates":1,"image_470_310":"","image_310_310":"","image_310_150":"","image_150_150":""}}],"advertisements":[]}